City_ID,City,Lat,Lng,Max Temp,Humidity,Cloudiness,Wind Speed,Country,Date
0,yumen,40.2833,97.2,13.04,15,99,6.64,CN,1683172976
1,arraial do cabo,-22.9661,-42.0278,22.46,82,0,1.76,BR,1683172976
2,mataura,-46.1927,168.8643,17.55,76,57,0.75,NZ,1683172977
3,saint-marc,19.1082,-72.6938,27.44,72,100,0.43,HT,1683172977
4,hovd,48.0056,91.6419,1.59,35,76,2.73,MN,1683172977
5,mahebourg,-20.4081,57.7,24.16,94,75,1.03,MU,1683172978
6,cidreira,-30.1811,-50.2056,20.96,95,100,5.22,BR,1683172978
7,bredasdorp,-34.5322,20.0403,11.38,92,0,1.78,ZA,1683172978
8,severo-kurilsk,50.6789,156.125,2.25,80,100,4.09,RU,1683172979
9,hervey bay,-25.2986,152.8535,24.03,43,1,3.91,AU,1683172979
10,norman wells,65.282,-126.8329,5.02,65,75,4.12,CA,1683172979
11,chokurdakh,70.6333,147.9167,-0.88,88,100,7.41,RU,1683172979
12,nishihara,26.1842,127.7558,26.6,74,75,7.2,JP,1683172980
13,sao filipe,14.8961,-24.4956,24.5,68,48,2.83,CV,1683172980
14,carnarvon,-24.8667,113.6333,27.06,44,2,3.58,AU,1683172981
15,garden city,42.3256,-83.331,10.08,76,100,2.57,US,1683172937
16,sinnamary,5.3833,-52.95,25.56,79,97,4.88,GF,1683172982
17,new norfolk,-42.7826,147.0587,14.4,67,49,0.99,AU,1683172982
18,cairns,-16.9167,145.7667,30.59,68,75,8.23,AU,1683172874
19,hermanus,-34.4187,19.2345,13.78,85,0,0.65,ZA,1683172983
20,gizo,-8.103,156.8419,29.68,75,100,4.99,SB,1683172983
21,ushuaia,-54.8,-68.3,5.81,87,75,6.17,AR,1683172984
22,katsuura,35.1333,140.3,20.77,64,0,8.13,JP,1683172985
23,rikitea,-23.1203,-134.9692,25.75,71,57,6.82,PF,1683172985
24,siocon,7.7061,122.1353,29.75,73,83,2.06,PH,1683172986
25,launceston,-41.45,147.1667,17.56,52,19,3.09,AU,1683172773
26,saint-philippe,-21.3585,55.7679,22.84,82,70,4.43,RE,1683172987
27,luderitz,-26.6481,15.1594,13.36,71,12,5.23,NA,1683172987
28,kapaa,22.0752,-159.319,26.99,77,66,1.79,US,1683172987
29,north bend,43.4065,-124.2243,11.59,87,20,2.06,US,1683172988
30,talavera de la reina,39.9635,-4.8308,12.62,87,9,2.75,ES,1683172990
31,qaanaaq,77.484,-69.3632,-5.61,94,99,1.54,GL,1683172990
32,saskylakh,71.9167,114.0833,-15.79,83,64,7.99,RU,1683172991
33,olonets,60.9847,32.9698,2.84,90,100,2.18,RU,1683172992
34,hilo,19.7297,-155.09,25.85,85,100,3.6,US,1683172806
35,busselton,-33.65,115.3333,20.31,49,36,4.26,AU,1683172994
36,ilulissat,69.2167,-51.1,1.01,93,100,5.66,GL,1683172995
37,grindavik,63.8424,-22.4338,3.26,87,100,8.23,IS,1683172995
38,komsomolskiy,40.4272,71.7189,18.4,22,59,5.14,UZ,1683172995
39,makamba,-4.1348,29.804,16.24,93,97,1.16,BI,1683172996
40,chuy,-33.6971,-53.4616,14.61,81,5,2.27,UY,1683172996
41,albany,42.6001,-73.9662,7.73,90,100,2.22,US,1683172755
42,invermere,50.5167,-116.0354,13.37,88,100,1.73,CA,1683172998
43,mardin,37.3131,40.7436,11.59,38,0,4.63,TR,1683172998
44,bull savanna,17.8868,-77.5902,24.16,82,100,3.13,JM,1683172999
45,vaini,-21.2,-175.2,25.09,78,75,8.75,TO,1683172999
46,guanica,17.9716,-66.908,26.62,66,67,3.44,PR,1683173000
47,broome,42.2506,-75.833,6.05,94,100,4.12,US,1683173000
48,hobart,-42.8794,147.3294,14.59,63,20,3.09,AU,1683172809
49,yellowknife,62.456,-114.3525,14.29,47,75,3.09,CA,1683173002
50,kankaanpaa,61.8,22.4167,-0.58,69,13,3.06,FI,1683173003
51,punta arenas,-53.15,-70.9167,8.06,81,40,10.29,CL,1683172935
52,padang,-0.9492,100.3543,31.03,74,99,0.82,ID,1683173004
53,cuamba,-14.8031,36.5372,13.88,96,1,0.97,MZ,1683173004
54,thai binh,20.45,106.3333,30.12,72,29,8.14,VN,1683173005
55,touros,-5.1989,-35.4608,25.43,85,7,3.52,BR,1683173005
56,butaritari,3.0707,172.7902,28.29,76,48,3.86,KI,1683173006
57,flinders,-34.5833,150.8552,21.77,52,10,1.79,AU,1683173006
58,fortuna,40.5982,-124.1573,11.48,87,100,1.61,US,1683173007
59,provideniya,64.3833,-173.3,-3.94,74,100,6.0,RU,1683173008
60,port alfred,-33.5906,26.891,17.24,85,0,2.81,ZA,1683173008
61,jamestown,42.097,-79.2353,6.68,92,100,3.6,US,1683172801
62,madera,37.1666,-119.8343,15.05,72,100,1.94,US,1683173009
63,yagodnoye,62.55,149.6667,-1.24,83,99,0.53,RU,1683173009
64,kaitangata,-46.2817,169.8464,14.96,93,20,2.41,NZ,1683173009
65,samarai,-10.6167,150.6667,28.49,78,82,5.88,PG,1683173010
66,hamina,60.5697,27.1979,-0.4,77,66,5.83,FI,1683173011
67,barrow,71.2906,-156.7887,-5.99,79,100,1.54,US,1683173011
68,puerto ayora,-0.7393,-90.3518,26.97,92,16,2.26,EC,1683173011
69,mar del plata,-38.0023,-57.5575,11.08,80,0,2.06,AR,1683172813
70,moree,-29.4667,149.85,21.85,24,0,5.53,AU,1683173013
71,bluff,-46.6,168.3333,14.75,84,36,2.21,NZ,1683173013
72,lorengau,-2.0226,147.2712,28.49,77,90,1.66,PG,1683173013
73,pacific grove,36.6177,-121.9166,12.23,90,100,0.45,US,1683172923
74,anchorage,61.2181,-149.9003,3.14,93,100,3.6,US,1683172893
75,jalu,29.0331,21.5482,19.38,51,71,7.21,LY,1683173014
76,georgetown,5.4112,100.3354,31.96,70,20,3.6,MY,1683172782
77,zasheyek,67.4066,32.5499,-2.09,79,100,5.35,RU,1683173015
78,kodiak,57.79,-152.4072,2.93,98,100,9.08,US,1683173015
79,asau,46.4333,26.4,7.51,65,100,0.11,RO,1683173016
80,tigil,57.8,158.6667,1.95,89,98,2.58,RU,1683173016
81,chumikan,54.7183,135.315,0.46,93,100,2.29,RU,1683173016
82,vila franca do campo,37.7167,-25.4333,16.23,89,71,5.07,PT,1683173017
83,kaeo,-35.1,173.7833,19.62,96,100,5.99,NZ,1683173017
84,ribeira grande,38.5167,-28.7,17.1,93,78,5.81,PT,1683173017
85,east london,-33.0153,27.9116,16.52,94,0,2.06,ZA,1683172834
86,dikson,73.5069,80.5464,-14.44,79,58,2.91,RU,1683173018
87,montevideo,-34.8335,-56.1674,13.84,88,0,0.0,UY,1683172533
88,lebu,-37.6167,-73.65,10.44,86,5,7.37,CL,1683173019
89,barkhan,29.8977,69.5256,22.78,52,17,3.02,PK,1683172877
90,thompson,55.7435,-97.8558,5.09,75,20,1.54,CA,1683173019
91,hazorasp,41.3194,61.0742,15.91,11,88,4.84,UZ,1683172817
92,cherskiy,68.75,161.3,-7.15,78,90,2.36,RU,1683173020
93,tasiilaq,65.6145,-37.6368,0.09,70,100,2.01,GL,1683173020
94,hofn,64.2539,-15.2082,3.21,71,100,5.11,IS,1683173021
95,bambous virieux,-20.3428,57.7575,24.14,94,75,1.03,MU,1683173021
96,avarua,-21.2078,-159.775,26.03,83,75,8.23,CK,1683173021
97,boueni,-12.9025,45.0761,26.99,72,27,5.97,YT,1683173022
98,faya,18.3851,42.4509,16.06,58,100,1.01,SA,1683173022
99,challapata,-18.9,-66.7667,7.98,27,15,1.64,BO,1683173022
100,narsaq,60.9167,-46.05,1.12,71,48,1.22,GL,1683173022
101,ancud,-41.8697,-73.8203,8.95,92,79,0.89,CL,1683172964
102,carutapera,-1.195,-46.02,24.26,95,100,3.03,BR,1683173023
103,tarquinia,42.2482,11.7553,13.23,80,4,4.76,IT,1683173023
104,ohara,35.25,140.3833,20.71,63,0,8.36,JP,1683173023
105,olafsvik,64.8945,-23.7142,5.08,83,100,1.39,IS,1683173024
106,sioux lookout,50.1001,-91.917,6.04,70,75,2.57,CA,1683173024
107,severobaykalsk,55.65,109.3167,2.79,64,7,0.85,RU,1683173024
108,ordynskoye,54.3656,81.8994,11.95,39,52,3.77,RU,1683173025
109,san quintin,30.4833,-115.95,13.9,68,0,2.82,MX,1683173025
110,ekhabi,53.5102,142.9671,1.38,83,100,7.2,RU,1683173025
111,acapulco,16.8634,-99.8901,27.83,69,52,0.44,MX,1683172886
112,ca mau,9.1769,105.15,35.52,43,46,3.93,VN,1683173026
113,rafaela,-31.2503,-61.4867,13.88,54,99,0.89,AR,1683173026
114,banda aceh,5.5577,95.3222,29.83,68,99,1.19,ID,1683173027
115,bathsheba,13.2167,-59.5167,27.34,83,40,4.63,BB,1683173027
116,acajutla,13.5928,-89.8275,28.34,79,33,2.51,SV,1683173027
117,bengkulu,-3.8004,102.2655,29.66,67,99,2.02,ID,1683173027
118,mitsamiouli,-11.3847,43.2844,26.57,76,1,4.18,KM,1683173027
119,meulaboh,4.1363,96.1285,27.81,78,100,1.97,ID,1683173028
120,port elizabeth,-33.918,25.5701,16.29,99,0,2.06,ZA,1683173028
121,yar-sale,66.8333,70.8333,-0.1,100,100,3.5,RU,1683173028
122,aklavik,68.2191,-135.0107,0.12,98,100,0.6,CA,1683173029
123,chapais,49.7834,-74.8492,4.88,92,100,3.66,CA,1683173029
124,salta,-24.7859,-65.4117,11.33,74,100,1.54,AR,1683172762
125,kavieng,-2.5744,150.7967,28.96,72,52,3.37,PG,1683173029
126,kirakira,-10.4544,161.9205,30.31,70,97,5.7,SB,1683173030
127,krasnoselkup,65.7,82.4667,1.23,100,100,2.45,RU,1683173030
128,dunedin,-45.8742,170.5036,14.33,98,13,0.89,NZ,1683173030
129,hasaki,35.7333,140.8333,27.94,64,0,9.87,JP,1683173031
130,airai,-8.9266,125.4092,21.31,72,79,1.55,TL,1683173031
131,saldanha,-33.0117,17.9442,10.03,89,21,5.58,ZA,1683173031
132,sanford,28.8006,-81.2731,21.73,61,7,0.45,US,1683172804
133,cejkovice,48.9059,16.9423,6.36,83,0,2.92,CZ,1683173032
134,jumla,29.2747,82.1838,10.13,92,100,1.62,NP,1683173032
135,changde,29.0464,111.6783,22.18,79,89,4.01,CN,1683172822
136,arlit,18.7369,7.3853,28.04,21,0,2.25,NE,1683173033
137,ostrovnoy,68.0531,39.5131,-0.7,97,100,14.15,RU,1683173033
138,berbera,10.4396,45.0143,30.54,68,100,0.46,SO,1683173033
139,khatanga,71.9667,102.5,-14.33,68,27,2.64,RU,1683173034
140,kruisfontein,-34.0033,24.7314,13.07,82,0,2.93,ZA,1683173034
141,itaguacu,-19.8019,-40.8556,19.28,94,3,0.88,BR,1683173034
142,lompoc,34.6391,-120.4579,11.55,88,100,0.89,US,1683172900
143,tual,-5.6667,132.75,28.49,80,31,5.83,ID,1683173035
144,mbarara,-0.608,30.65,16.18,95,100,1.15,UG,1683173035
145,mattru,7.6244,-11.8332,23.29,97,100,1.06,SL,1683173036
146,darhan,49.4867,105.9228,3.99,70,100,4.66,MN,1683173036
147,madimba,-10.4,40.3333,22.62,88,20,7.72,TZ,1683173036
148,college,64.8569,-147.8028,6.15,58,75,5.14,US,1683172835
149,moerai,-22.4333,-151.3333,24.77,87,70,11.15,PF,1683173036
150,aljezur,37.3191,-8.8033,15.26,95,84,1.64,PT,1683173037
151,cape town,-33.9258,18.4232,15.51,80,20,2.57,ZA,1683172725
152,hithadhoo,-0.6,73.0833,27.48,83,100,11.14,MV,1683173037
153,tiksi,71.6872,128.8694,-0.55,88,61,11.66,RU,1683173038
154,idanre,7.1127,5.1159,21.81,98,71,0.51,NG,1683173039
155,saint-georges,12.0564,-61.7485,27.82,78,40,6.17,GD,1683172806
156,vilyuysk,63.7553,121.6247,3.05,82,96,4.82,RU,1683173039
157,bethel,41.3712,-73.414,9.97,84,100,1.54,US,1683173040
158,upernavik,72.7868,-56.1549,-0.66,97,100,10.49,GL,1683173040
159,atuona,-9.8,-139.0333,27.82,77,1,8.5,PF,1683172823
160,jackson,42.4165,-122.8345,17.93,42,40,3.09,US,1683173040
161,cabedelo,-6.9811,-34.8339,25.37,84,29,3.27,BR,1683173041
162,buala,-8.145,159.5921,30.32,68,100,3.14,SB,1683173041
163,longyearbyen,78.2186,15.6401,-4.09,86,75,1.54,SJ,1683173041
164,namibe,-15.1961,12.1522,23.45,77,1,1.74,AO,1683173042
165,moldava nad bodvou,48.6143,20.9996,11.08,66,0,8.23,SK,1683173042
166,cap malheureux,-19.9842,57.6142,24.15,83,2,2.24,MU,1683173042
167,miranda de ebro,42.6865,-2.947,13.32,78,73,1.73,ES,1683173043
168,torbay,47.6666,-52.7314,3.65,98,100,5.14,CA,1683173045
169,kiama,-34.6833,150.8667,20.7,56,16,2.78,AU,1683172849
170,warrnambool,-38.3833,142.4833,15.74,52,93,3.22,AU,1683173045
171,lerwick,60.1545,-1.1494,7.0,78,100,8.15,GB,1683173046
172,ormara,25.2088,64.6357,27.23,67,0,2.45,PK,1683173046
173,nanortalik,60.1432,-45.2371,0.07,83,33,0.75,GL,1683173047
174,tucurui,-3.7661,-49.6725,22.97,99,96,1.47,BR,1683173047
175,tiznit,29.5833,-9.5,17.6,43,82,0.58,MA,1683173047
176,kang,-23.6752,22.7876,18.78,62,73,3.14,BW,1683173048
177,cabo san lucas,22.8909,-109.9124,23.12,71,100,6.07,MX,1683172764
178,duku,11.2361,4.9073,29.03,48,38,2.91,NG,1683173048
179,carbondale,37.7273,-89.2168,9.0,86,0,0.0,US,1683173049
180,sika,13.3546,-16.345,24.08,78,98,2.9,GM,1683173050
181,peniche,39.3558,-9.3811,15.25,95,13,4.27,PT,1683173050
182,karakol,42.4907,78.3936,4.84,34,0,4.23,KG,1683173050
183,shakawe,-18.3667,21.85,16.57,52,58,2.56,BW,1683173051
184,abu samrah,35.3029,37.1841,17.73,25,0,2.78,SY,1683173051
185,kendal,54.3268,-2.7476,7.28,82,100,3.12,GB,1683173052
186,port said,31.2565,32.2841,18.99,82,0,3.09,EG,1683173052
187,mehamn,71.0357,27.8492,-2.03,69,75,8.75,NO,1683173053
188,saint-augustin,51.226,-58.6502,4.76,87,100,6.34,CA,1683173053
189,ferrol,43.4832,-8.2369,15.38,81,3,6.6,ES,1683173053
190,barcelona,41.3888,2.159,18.18,81,20,2.57,ES,1683172397
191,caete,-19.88,-43.6697,19.57,94,0,1.17,BR,1683173054
192,dharchula,29.85,80.5333,17.45,77,100,0.17,IN,1683173056
193,srednekolymsk,67.45,153.6833,-1.68,78,99,3.18,RU,1683173057
194,hede,33.7681,120.2517,26.61,76,100,4.77,CN,1683173057
195,yangshan,28.7615,115.0287,25.61,76,96,3.45,CN,1683173058
196,zeya,53.75,127.2667,10.74,43,96,6.01,RU,1683173058
197,manzanillo,20.3433,-77.1167,24.32,86,87,2.17,CU,1683172777
198,changji,44.0167,87.3167,6.44,45,100,4.0,CN,1683173059
199,saint george,37.1041,-113.5841,19.97,52,75,2.06,US,1683172907
200,cayenne,4.9333,-52.3333,26.02,83,75,1.54,GF,1683172789
201,sao joao da barra,-21.6403,-41.0511,21.65,88,2,1.48,BR,1683173060
202,prince rupert,54.3161,-130.3201,8.05,81,100,7.72,CA,1683173061
203,conde,-7.2597,-34.9075,24.7,94,40,0.0,BR,1683173061
204,coihaique,-45.5752,-72.0662,11.34,76,75,1.54,CL,1683173062
205,puksoozero,62.5903,40.6066,0.81,68,34,4.59,RU,1683173062
206,berlevag,70.8578,29.0864,-2.0,74,100,8.23,NO,1683173062
207,clyde river,70.4692,-68.5914,-10.87,85,75,6.17,CA,1683173063
208,whyalla,-33.0333,137.5833,17.56,55,15,0.58,AU,1683173063
209,tuktoyaktuk,69.4541,-133.0374,-4.0,86,75,6.17,CA,1683173064
210,mpika,-11.8343,31.4529,11.53,90,0,2.54,ZM,1683173064
211,klaksvik,62.2266,-6.589,5.51,80,100,11.45,FO,1683173064
212,aykhal,66.0,111.5,0.42,95,66,7.84,RU,1683173065
213,nouakchott,18.0858,-15.9785,24.96,37,75,5.86,MR,1683172953
214,noyabrsk,63.1994,75.4507,6.21,99,100,7.43,RU,1683173067
215,bloomfield,40.8068,-74.1854,10.36,82,100,3.09,US,1683172912
216,wasilla,61.5814,-149.4394,3.25,88,75,1.54,US,1683173068
217,kokkola,63.8385,23.1307,-0.04,92,100,5.14,FI,1683173068
218,alugan,12.2188,125.4808,28.4,75,91,4.15,PH,1683173069
219,bydgoszcz,53.1235,18.0076,5.46,83,0,1.03,PL,1683173069
220,contamana,-7.3333,-75.0167,22.84,96,54,0.41,PE,1683173070
221,muros,42.7762,-9.0603,15.61,89,8,5.41,ES,1683173070
222,ahipara,-35.1667,173.1667,18.89,93,100,5.17,NZ,1683173070
223,venice,27.0998,-82.4543,24.01,60,0,0.0,US,1683173071
224,puri,19.8,85.85,28.29,69,100,2.79,IN,1683173072
225,kamaishi,39.2667,141.8833,21.19,37,7,3.58,JP,1683173073
226,muisne,0.6,-80.0333,26.33,88,100,2.23,EC,1683173073
227,kieta,-6.2167,155.6333,29.32,78,92,2.92,PG,1683173074
228,yaan,7.3833,8.5667,25.57,77,92,2.56,NG,1683173075
229,kungurtug,50.5994,97.5228,1.17,62,99,1.49,RU,1683173075
230,angicos,-5.6656,-36.6011,23.05,87,16,3.04,BR,1683173075
231,kirkwall,58.9848,-2.9587,7.2,87,100,8.23,GB,1683173076
232,sabzevar,36.2126,57.6819,16.6,63,20,4.12,IR,1683173077
233,soure,-0.7167,-48.5233,25.5,89,91,4.94,BR,1683173077
234,lagoa,39.05,-27.9833,15.82,86,59,7.8,PT,1683173077
235,havoysund,70.9963,24.6622,-0.43,62,100,8.07,NO,1683173078
236,ternate,0.8,127.4,29.29,76,28,4.28,ID,1683173078
237,tuatapere,-46.1333,167.6833,15.64,85,98,1.71,NZ,1683173078
238,artyom,40.4723,50.333,17.08,66,99,0.7,AZ,1683173079
239,sola,-13.8833,167.55,27.97,75,43,7.09,VU,1683173079
240,opuwo,-18.0607,13.84,17.98,41,1,1.74,NA,1683173080
241,arman,59.7,150.1667,2.08,75,100,1.61,RU,1683173080
242,pevek,69.7008,170.3133,-9.14,81,100,1.4,RU,1683173080
243,tupik,54.4253,119.9327,5.55,49,100,3.78,RU,1683173081
244,vila velha,-20.3297,-40.2925,19.97,96,20,1.03,BR,1683173081
245,victoria,22.2855,114.1577,30.21,80,6,1.79,HK,1683173082
246,grand gaube,-20.0064,57.6608,24.22,83,2,2.24,MU,1683173082
247,barstow,34.8986,-117.0228,13.55,53,61,10.14,US,1683173082
248,burnie,-41.0667,145.9167,14.69,67,4,2.63,AU,1683173083
249,bismil,37.8486,40.6658,9.85,51,0,0.87,TR,1683173083
250,skelleftea,64.7507,20.9528,-0.8,59,0,3.6,SE,1683173083
251,pemangkat,1.1667,108.9667,29.56,69,91,2.19,ID,1683173083
252,caruray,10.3094,119.0128,26.87,90,100,4.29,PH,1683173084
253,souillac,-20.5167,57.5167,24.21,94,75,1.03,MU,1683173084
254,atambua,-9.1061,124.8925,28.29,67,48,0.8,ID,1683173084
255,revelganj,25.7833,84.6667,29.95,47,72,0.85,IN,1683173085
256,puerto escondido,15.85,-97.0667,28.73,70,50,1.31,MX,1683173085
257,copiapo,-27.3667,-70.3333,11.83,86,3,0.12,CL,1683172767
258,inongo,-1.95,18.2667,21.82,96,100,1.53,CD,1683173086
259,chicama,-7.8447,-79.1469,22.3,82,36,2.86,PE,1683173086
260,geraldton,-28.7667,114.6,24.25,46,18,5.64,AU,1683173087
261,teya,60.3778,92.6267,5.76,78,100,3.75,RU,1683173087
262,bandar-e lengeh,26.5579,54.8807,26.06,78,0,2.06,IR,1683173087
263,srostki,52.4189,85.7022,8.39,62,53,1.59,RU,1683173088
264,vardo,70.3705,31.1107,-2.01,86,100,10.8,NO,1683173088
265,novobiryusinskiy,56.9578,97.7076,7.83,52,50,1.69,RU,1683173088
266,san patricio,28.017,-97.5169,24.35,90,62,2.99,US,1683173089
267,strezhevoy,60.7333,77.5889,7.96,83,100,4.45,RU,1683173089
268,zhigalovo,54.8097,105.1578,8.45,42,14,1.49,RU,1683173089
269,zyryanka,65.75,150.85,0.17,79,96,4.25,RU,1683173090
270,lasa,46.6166,10.7002,9.65,79,11,0.52,IT,1683173090
271,richards bay,-28.783,32.0377,19.98,91,82,1.94,ZA,1683173090
272,sikasso,10.9167,-7.0,27.84,47,92,2.42,ML,1683173091
273,san cristobal,7.7669,-72.225,23.1,67,43,1.21,VE,1683173091
274,miles city,46.4083,-105.8406,17.54,36,0,4.63,US,1683173091
275,kangaba,11.9333,-8.4167,27.99,46,13,2.33,ML,1683173091
276,castro,-24.7911,-50.0119,17.3,89,88,1.09,BR,1683173092
277,kamenskiy,50.8855,45.488,13.65,62,24,5.43,RU,1683173092
278,hamilton,39.1834,-84.5333,8.89,80,0,2.06,US,1683173041
279,rocha,-34.4833,-54.3333,11.0,89,0,1.62,UY,1683173093
280,ambon,-3.6954,128.1814,29.42,95,40,2.06,ID,1683172947
281,vostok,46.4856,135.8833,9.74,87,100,4.17,RU,1683173094
282,sinnar,13.5691,33.5672,29.4,10,94,4.76,SD,1683173094
283,giddalur,15.35,78.9167,29.94,61,96,2.22,IN,1683173095
284,henties bay,-22.116,14.2845,14.77,87,11,2.04,NA,1683173095
285,sao paulo de olivenca,-3.3783,-68.8725,22.5,97,40,0.7,BR,1683173095
286,dingle,10.9995,122.6711,27.61,79,100,0.25,PH,1683173096
287,kenai,60.5544,-151.2583,6.05,66,100,2.57,US,1683173096
288,te anau,-45.4167,167.7167,15.97,81,81,0.37,NZ,1683173096
289,carlos antonio lopez,-26.4,-54.7667,18.7,99,100,0.29,PY,1683173097
290,naze,28.3667,129.4833,22.51,75,100,6.02,JP,1683173097
291,ketchikan,55.3422,-131.6461,8.99,73,94,2.9,US,1683173097
292,novi bilokorovychi,51.1155,28.0546,8.44,93,100,4.24,UA,1683173097
293,great bend,38.3645,-98.7648,16.69,53,0,4.63,US,1683173098
294,hanyang,32.1371,105.5126,24.52,39,78,9.59,CN,1683173098
295,cravo norte,6.3017,-70.2041,30.71,48,97,1.18,CO,1683173098
296,gillette,44.2911,-105.5022,14.97,55,0,1.54,US,1683173099
297,esperance,-33.8667,121.9,19.0,69,70,4.38,AU,1683173099
298,ocos,14.5094,-92.1933,29.1,76,89,2.48,GT,1683173099
299,rio grande city,26.3798,-98.8203,25.06,87,94,4.98,US,1683173100
300,nara,34.6851,135.8049,25.28,29,100,2.97,JP,1683173062
301,morondava,-20.2833,44.2833,23.53,63,64,0.96,MG,1683173100
302,warangal,18.0,79.5833,29.19,60,21,3.69,IN,1683172822
303,nikolskoye,59.7035,30.7861,3.94,83,98,3.09,RU,1683173101
304,vao,-22.6667,167.4833,25.12,77,38,3.17,NC,1683173101
305,tessalit,20.1986,1.0114,30.07,7,26,4.81,ML,1683173102
306,pisco,-13.7,-76.2167,20.03,83,6,2.06,PE,1683173103
307,port lincoln,-34.7333,135.8667,17.06,57,100,4.99,AU,1683173104
308,riberalta,-10.9833,-66.1,22.72,97,41,0.36,BO,1683173104
309,puerto ayacucho,5.6639,-67.6236,26.93,77,94,1.87,VE,1683173106
310,shingu,33.7333,135.9833,21.5,61,92,5.09,JP,1683173106
311,hailey,43.5196,-114.3153,11.05,48,70,1.34,US,1683173107
312,gazli,40.1333,63.45,16.93,13,100,8.11,UZ,1683173107
313,tapel,18.2891,122.0292,32.93,56,7,2.56,PH,1683173108
314,veraval,20.9,70.3667,29.1,60,6,1.99,IN,1683173109
315,malanje,-9.5402,16.341,16.59,86,21,1.45,AO,1683173109
316,innisfail,-17.5333,146.0333,26.77,71,75,4.96,AU,1683173109
317,alta floresta,-9.8756,-56.0861,21.32,96,0,0.7,BR,1683172886
318,aripuana,-9.1667,-60.6333,22.67,95,3,0.49,BR,1683173110
319,upata,8.0086,-62.3989,24.0,79,7,3.85,VE,1683173110
320,fez,34.0372,-4.9998,15.14,58,0,2.06,MA,1683173111
321,anapskaya,44.89,37.38,13.13,76,0,2.0,RU,1683173112
322,wilmington,34.2257,-77.9447,12.18,59,0,1.34,US,1683172824
323,wajima,37.4,136.9,23.38,43,0,5.14,JP,1683173112
324,laukaa,58.7372,29.8453,2.24,86,17,4.05,RU,1683173113
325,waddan,29.1614,16.139,16.71,47,1,1.7,LY,1683173113
326,port hardy,50.6996,-127.4199,12.1,62,40,5.14,CA,1683173114
327,hay river,60.8156,-115.7999,16.99,34,75,5.66,CA,1683173114
328,mandan,46.8267,-100.8896,17.12,36,0,4.12,US,1683173115
329,omsukchan,62.5333,155.8,-1.57,83,100,1.26,RU,1683173115
330,leningradskiy,69.3833,178.4167,-8.94,85,99,4.72,RU,1683173115
331,ust-ilimsk,58.0006,102.6619,7.04,63,26,2.03,RU,1683173116
332,westport,41.1415,-73.3579,10.67,82,92,1.34,US,1683173116
333,bandarbeyla,9.4942,50.8122,30.14,71,100,5.16,SO,1683173117
334,deputatskiy,69.3,139.9,-2.06,79,93,6.34,RU,1683173117
335,mount isa,-20.7333,139.5,29.87,32,28,4.63,AU,1683173118
336,coahuayana,18.7333,-103.6833,23.43,79,84,1.58,MX,1683173119
337,orange cove,36.6244,-119.3137,15.81,52,100,4.12,US,1683173119
338,turkistan,43.0,68.0,13.36,18,3,16.62,KZ,1683173120
339,marawi,7.9986,124.2928,28.74,62,95,1.68,PH,1683173120
340,besikduzu,41.052,39.2284,12.94,59,0,2.88,TR,1683173121
341,calama,-22.4667,-68.9333,10.27,20,0,6.69,CL,1683172833
342,morehead,37.2711,-87.1764,8.33,90,0,0.0,US,1683173121
343,tilichiki,60.4667,166.1,-4.25,70,100,0.32,RU,1683173122
344,lisakovsk,52.5369,62.4936,14.28,26,3,5.79,KZ,1683173123
345,ponta do sol,32.6667,-17.1,19.28,64,94,2.01,PT,1683173123
346,nuuk,64.1835,-51.7216,2.34,80,100,13.38,GL,1683173123
347,hambantota,6.1241,81.1185,28.19,89,75,3.6,LK,1683173124
348,rhyl,53.3196,-3.4886,7.4,3,98,5.7,GB,1683173125
349,taoudenni,22.6783,-3.9836,33.24,7,9,3.49,ML,1683173125
350,ambulu,-8.345,113.6058,29.91,69,20,2.27,ID,1683173125
351,beloha,-25.1667,45.05,18.11,81,9,4.19,MG,1683173126
352,nautla,20.2167,-96.7833,24.96,93,39,2.05,MX,1683173126
353,camargo,27.6667,-105.1667,25.58,20,100,7.67,MX,1683173059
354,bronnoysund,65.4625,12.1997,0.0,93,75,3.13,NO,1683173127
355,bubaque,11.2833,-15.8333,25.86,84,87,4.0,GW,1683173128
356,champerico,14.3,-91.9167,29.22,75,52,2.51,GT,1683173129
357,brae,60.3964,-1.353,5.85,78,100,7.51,GB,1683173129
358,roald,62.5833,6.1333,4.31,75,7,6.17,NO,1683173131
359,egvekinot,66.3167,-179.1667,-8.4,82,73,1.54,RU,1683173132
360,tazmalt,36.3868,4.3989,14.5,46,91,1.06,DZ,1683173132
361,uray,60.1247,64.7758,16.53,63,97,2.68,RU,1683173133
362,nacogdoches,31.6002,-94.6335,19.88,83,0,0.0,US,1683173133
363,sistranda,63.7256,8.834,0.98,57,28,3.21,NO,1683173134
364,winfield,37.2398,-96.9956,16.9,58,0,1.54,US,1683173135
365,salalah,17.0151,54.0924,30.05,74,0,1.54,OM,1683173135
366,vrangel,42.7297,133.0839,12.03,71,62,4.06,RU,1683173136
367,siniscola,40.5719,9.6922,10.75,89,1,3.02,IT,1683173137
368,kadaya,50.9327,119.2911,11.19,24,3,4.65,RU,1683173137
369,verkh-usugli,52.7,115.1667,9.87,18,0,3.28,RU,1683173138
370,vyazemskiy,47.5378,134.7525,19.53,24,100,8.83,RU,1683173138
371,arkhipo-osipovka,44.37,38.52,11.51,86,0,3.21,RU,1683173139
372,mogadishu,2.0371,45.3438,28.18,75,99,5.97,SO,1683173023
373,hualmay,-11.0964,-77.6139,22.43,86,93,4.37,PE,1683173139
374,phalombe,-15.8064,35.6507,13.3,91,0,0.61,MW,1683173139
375,belle fourche,44.6714,-103.8522,17.4,23,80,2.31,US,1683173140
376,virginia beach,36.8529,-75.978,12.79,72,75,3.09,US,1683172781
377,porbandar,21.6422,69.6093,28.99,70,20,3.09,IN,1683173140
378,urusha,54.05,122.9,7.65,38,92,5.02,RU,1683173141
379,ostroleka,53.0862,21.5757,3.85,81,33,1.95,PL,1683173141
380,rawson,-43.3002,-65.1023,16.12,51,56,8.91,AR,1683173141
381,kudahuvadhoo,2.6708,72.8944,27.4,79,100,8.01,MV,1683173141
382,springbok,-29.6643,17.8865,9.51,60,24,1.17,ZA,1683173142
383,xinzhi,36.4989,111.7047,17.24,89,100,2.66,CN,1683173142
384,faanui,-16.4833,-151.75,28.19,78,38,8.16,PF,1683173142
385,caravelas,-17.7125,-39.2481,23.01,90,0,1.67,BR,1683172998
386,paramirim,-13.4425,-42.2389,23.95,65,100,1.47,BR,1683173143
387,wajid,3.8093,43.2471,24.45,78,100,5.57,SO,1683173143
388,maceio,-9.6658,-35.7353,23.69,100,40,1.54,BR,1683173143
389,taonan,45.3333,122.7833,19.36,23,68,6.58,CN,1683173144
390,lisala,2.15,21.5167,20.93,98,99,1.02,CD,1683173144
391,camacha,33.0833,-16.3333,16.68,77,20,3.09,PT,1683173145
392,manzhouli,49.6,117.4333,12.06,12,100,4.66,CN,1683173145
393,port augusta,-32.5,137.7667,19.46,46,0,1.73,AU,1683173145
394,dalvik,65.9702,-18.5286,-0.04,64,99,1.75,IS,1683173145
395,mbandaka,0.0487,18.2603,21.34,96,83,1.54,CD,1683173146
396,waingapu,-9.6567,120.2641,29.67,69,52,5.76,ID,1683173146
397,boa vista,2.8197,-60.6733,25.99,73,0,2.06,BR,1683173147
398,roebourne,-20.7833,117.1333,31.33,25,0,5.78,AU,1683173147
399,itoman,26.1247,127.6694,27.01,74,75,7.2,JP,1683173147
400,sindor,62.8629,51.8905,7.84,65,61,4.93,RU,1683173148
401,ville-marie,47.3335,-79.433,5.8,94,100,1.77,CA,1683173148
402,nurota,40.5614,65.6886,15.45,17,71,6.39,UZ,1683173148
403,cascais,38.6979,-9.4215,16.95,90,86,4.02,PT,1683173148
404,stephenville,32.2207,-98.2023,22.44,71,0,2.57,US,1683173149
405,fairbanks,64.8378,-147.7164,6.98,57,75,4.63,US,1683173146
406,muravlenko,63.7898,74.523,3.34,100,100,7.77,RU,1683173149
407,nhulunbuy,-12.2333,136.7667,29.34,84,75,5.66,AU,1683172881
408,pangnirtung,66.1451,-65.7125,-3.89,96,98,0.97,CA,1683173150
409,magocs,46.35,18.2324,12.12,94,100,2.36,HU,1683173151
410,garoua boulai,5.8833,14.55,17.12,95,91,1.25,CM,1683173151
411,cockburn town,21.4612,-71.1419,27.04,80,100,5.43,TC,1683172983
412,chabahar,25.2919,60.643,26.91,77,2,4.67,IR,1683173152
413,san,13.3034,-4.8956,31.69,29,13,3.63,ML,1683173152
414,alekseyevsk,57.8406,108.3492,6.76,62,98,2.14,RU,1683173153
415,ust-maya,60.4167,134.5333,5.02,71,28,4.38,RU,1683173153
416,puerto madryn,-42.7692,-65.0385,15.21,52,53,5.1,AR,1683172868
417,kavaratti,10.5669,72.642,28.78,66,55,2.75,IN,1683173154
418,ubinskoye,55.3068,79.6802,12.39,33,100,3.35,RU,1683173154
419,jibuti,11.5,42.5,27.23,66,99,2.17,DJ,1683173155
420,broken hill,-31.95,141.4333,17.08,36,5,1.97,AU,1683173155
421,dasoguz,41.8363,59.9666,17.97,32,100,1.03,TM,1683173155
422,rio gallegos,-51.6226,-69.2181,9.03,66,20,7.72,AR,1683173156
423,ola,59.5833,151.2833,1.53,72,100,1.52,RU,1683173156
424,palampur,32.1167,76.5333,18.08,62,14,2.19,IN,1683173078
425,bambanglipuro,-7.95,110.2833,30.31,68,92,0.85,ID,1683173156
426,saint-pierre,-21.3393,55.4781,23.65,83,75,1.54,RE,1683173157
427,machali,-34.1833,-70.6667,11.36,52,0,0.58,CL,1683172947
428,mosquera,4.7059,-74.2302,9.05,93,68,2.06,CO,1683173157
429,haines junction,60.7522,-137.5108,4.97,45,69,5.66,CA,1683173158
430,beringovskiy,63.05,179.3167,-3.8,70,68,0.5,RU,1683173158
431,pauini,-7.7136,-66.9764,24.98,87,100,0.72,BR,1683173158
432,baruun-urt,46.6806,113.2792,1.88,75,100,8.76,MN,1683173159
433,qui nhon,13.7667,109.2333,30.69,60,96,5.03,VN,1683173070
434,kikwit,-5.041,18.8162,21.07,98,97,0.6,CD,1683173159
435,khanpur,28.6453,70.6567,32.45,32,92,3.47,PK,1683173159
436,jiuquan,39.7432,98.5174,14.84,19,69,4.52,CN,1683173160
437,sonoita,31.85,-112.8333,18.17,27,0,5.94,MX,1683173160
438,port hedland,-20.3167,118.5667,34.03,17,0,5.66,AU,1683173161
439,bahia blanca,-38.7196,-62.2724,16.57,35,54,5.81,AR,1683173161
440,robertsganj,24.7,83.0667,29.46,44,54,1.01,IN,1683173161
441,sibolga,1.7427,98.7792,29.59,72,98,1.82,ID,1683173162
442,verkhnyaya inta,65.9811,60.3094,6.18,82,75,2.63,RU,1683173163
443,churapcha,62.0025,132.4325,2.79,70,99,4.55,RU,1683173163
444,fasa,28.9383,53.6482,15.58,31,0,0.0,IR,1683173164
445,khawhai,23.3667,93.1167,26.03,35,95,1.64,IN,1683173164
446,ust-kan,50.9276,84.761,1.47,69,99,3.29,RU,1683173165
447,almunecar,36.7339,-3.6907,19.42,39,56,2.58,ES,1683173166
448,sidi ali,36.0998,0.4206,15.3,90,56,3.07,DZ,1683173166
449,pangai,-19.8,-174.35,27.06,69,75,8.75,TO,1683173166
450,axim,4.8699,-2.2405,26.48,85,55,2.02,GH,1683173167
451,lensk,60.7253,114.9278,5.79,63,66,5.91,RU,1683173167
452,coquimbo,-29.9533,-71.3436,11.85,87,0,1.54,CL,1683172997
453,siderno,38.2779,16.302,14.66,84,40,3.92,IT,1683173167
454,khasan,42.4308,130.6434,17.85,54,17,4.16,RU,1683173168
455,codrington,-38.2667,141.9667,16.43,48,62,3.8,AU,1683173168
456,sur,22.5667,59.5289,27.73,76,3,3.02,OM,1683173168
457,townsville,-19.25,146.8,26.49,57,75,7.2,AU,1683173169
458,yerbogachen,61.2767,108.0108,4.64,79,96,5.02,RU,1683173169
459,iqaluit,63.7506,-68.5145,-3.15,79,75,3.09,CA,1683173170
460,naryan-mar,67.6713,53.087,0.17,99,100,4.34,RU,1683173170
461,viedma,-40.8135,-62.9967,13.48,38,34,5.22,AR,1683173170
462,biak,-0.9131,122.8766,28.72,75,55,1.56,ID,1683173171
463,sabla,12.7525,4.7077,30.75,29,12,2.96,NG,1683173171
464,oksfjord,70.2396,22.3479,1.1,79,100,4.47,NO,1683173171
465,mikhaylovka,50.06,43.2379,13.72,69,11,4.5,RU,1683173172
466,inhambane,-23.865,35.3833,20.65,81,1,2.43,MZ,1683173172
467,maldonado,-34.6667,-54.9167,14.52,89,0,1.93,UY,1683173173
468,condado,21.8767,-79.8403,25.16,82,100,1.12,CU,1683173173
469,cadillac,44.2519,-85.4012,2.66,93,0,0.0,US,1683173173
470,jinhua,29.1078,119.6547,31.5,52,60,1.74,CN,1683173174
471,sambava,-14.2667,50.1667,23.81,81,6,4.61,MG,1683173174
472,kahului,20.8947,-156.47,27.01,67,20,10.29,US,1683173174
473,ajaccio,42.0,8.9167,11.03,87,0,3.09,FR,1683173175
474,suntar,62.1444,117.6319,4.03,91,92,4.54,RU,1683173176
475,plaridel,14.8872,120.8572,33.95,46,67,5.01,PH,1683173176
476,manaure,11.7751,-72.4445,27.71,69,0,4.11,CO,1683173176
477,luanda,-8.8368,13.2343,27.0,83,75,3.09,AO,1683173177
478,gedo,9.0167,37.45,10.94,89,84,1.75,ET,1683173177
479,solnechnyy,50.7214,136.6319,13.89,21,80,7.57,RU,1683173178
480,morbach,49.8167,7.1167,7.18,81,0,3.09,DE,1683173178
481,ranong,9.9658,98.6348,33.96,55,79,0.72,TH,1683173178
482,koumac,-20.5667,164.2833,26.55,76,51,3.13,NC,1683173178
483,najran,17.4924,44.1277,22.36,22,84,2.28,SA,1683173179
484,tauberbischofsheim,49.6247,9.6628,7.84,91,88,2.21,DE,1683173179
485,kargil,34.5667,76.1,2.33,51,2,1.07,IN,1683173179
486,lincoln,40.8,-96.667,16.61,35,0,1.54,US,1683173155
487,merauke,-8.4667,140.3333,29.33,78,42,3.39,ID,1683173180
488,udachnyy,66.4167,112.4,4.14,51,84,6.56,RU,1683172901
489,kuala terengganu,5.3302,103.1408,32.73,67,20,2.24,MY,1683173180
490,millerovo,48.9226,40.3967,12.79,71,30,2.53,RU,1683173181
491,sanbu,33.4594,119.1453,25.84,81,99,6.63,CN,1683173181
492,holme,56.1138,10.1725,3.3,90,21,1.68,DK,1683173181
493,simbahan,6.3032,120.5836,28.69,74,100,2.52,PH,1683173182
494,alofi,-19.0595,-169.9187,23.94,94,75,5.14,NU,1683173182
495,peabiru,-23.9128,-52.3431,17.45,93,58,0.82,BR,1683173182
496,plouzane,48.3833,-4.6167,15.1,72,0,4.12,FR,1683173182
497,lishui,28.4604,119.9103,30.37,58,100,1.91,CN,1683172998
498,tahoua,14.8888,5.2692,28.82,27,0,1.77,NE,1683173183
499,goedereede,51.8175,3.9806,9.0,80,100,7.71,NL,1683173183
500,korla,41.7597,86.1469,8.57,57,100,9.61,CN,1683173183
501,perigueux,45.1833,0.7167,13.93,61,100,3.93,FR,1683173184
502,gualeguay,-33.1416,-59.3097,9.34,84,49,2.81,AR,1683173185
503,novopavlovka,51.2172,109.2091,9.75,19,100,2.18,RU,1683173185
504,saint-joseph,-21.3667,55.6167,23.04,80,47,4.46,RE,1683173185
505,poya,-21.35,165.15,26.64,76,33,2.57,NC,1683173186
506,portland,45.5234,-122.6762,17.24,74,100,1.79,US,1683173075
507,pangoa,-12.1167,-73.0,19.65,99,31,0.99,PE,1683173186
508,asfi,32.2994,-9.2372,18.51,79,98,4.07,MA,1683173187
509,kysyl-syr,63.8986,122.7617,2.96,84,100,4.6,RU,1683173187
510,aden,12.7794,45.0367,29.65,77,99,3.93,YE,1683173188
511,ust-nera,64.5667,143.2,1.25,74,97,2.74,RU,1683173188
512,mmabatho,-25.85,25.6333,11.98,82,90,3.6,ZA,1683173188
513,bilibino,68.0546,166.4372,-5.75,74,100,2.22,RU,1683173188
514,necochea,-38.5473,-58.7368,10.23,49,0,5.8,AR,1683173189
515,vanderhoof,54.0166,-124.0198,15.04,50,56,0.44,CA,1683173189
516,vanavara,60.34,102.2797,4.18,81,100,4.2,RU,1683173189
517,camapua,-19.5314,-54.0439,21.04,89,5,1.57,BR,1683173190
518,puerto suarez,-18.95,-57.8,21.28,83,20,1.22,BO,1683173190
519,namatanai,-3.6667,152.4333,29.06,72,100,1.78,PG,1683173190
520,the valley,18.217,-63.0578,26.92,76,100,5.85,AI,1683173014
521,west bay,19.3667,-81.4167,28.04,85,40,1.54,KY,1683173191
522,agirish,61.9247,63.0231,11.34,63,35,3.22,RU,1683173191
523,kinsale,51.7075,-8.5306,10.65,87,75,7.72,IE,1683173071
524,wanning,18.8003,110.3967,30.6,65,11,7.17,CN,1683173192
525,serebryansk,49.6925,83.2892,6.32,49,49,1.86,KZ,1683173193
526,baykit,61.67,96.37,5.82,83,100,2.89,RU,1683173193
527,mount gambier,-37.8333,140.7667,15.37,52,42,3.97,AU,1683173193
528,kaputa,-8.4689,29.6619,19.08,82,4,0.15,ZM,1683173193
529,callaway,30.153,-85.5699,21.66,81,0,3.6,US,1683173194
530,huarmey,-10.0681,-78.1522,23.5,84,85,4.81,PE,1683173194
531,laguna,38.421,-121.4238,15.59,60,75,1.54,US,1683173195
532,yambio,4.5721,28.3955,19.36,99,100,1.56,SS,1683173195
533,zomba,-15.386,35.3188,12.49,92,2,0.68,MW,1683173195
534,sitka,57.0531,-135.33,7.94,66,0,2.06,US,1683173196
535,karpathos,35.507,27.2132,18.98,63,67,7.2,GR,1683173196
536,lata,40.1629,-8.3327,14.49,98,10,1.55,PT,1683173196
537,paamiut,61.994,-49.6678,1.59,74,98,4.07,GL,1683173196
538,erzin,36.9559,36.2,17.76,40,3,2.24,TR,1683173132
539,christchurch,-43.5333,172.6333,20.18,71,75,4.12,NZ,1683173179
540,etchojoa,26.9167,-109.6333,24.75,38,100,1.94,MX,1683173197
541,lavrentiya,65.5833,-171.0,-4.36,77,99,1.58,RU,1683173197
542,tevriz,57.509,72.4042,16.13,32,34,4.58,RU,1683173197
543,kleive,62.7954,7.6359,1.18,80,20,3.09,NO,1683173198
544,santa cruz,-17.8,-63.1667,14.7,88,100,4.63,BO,1683173198
545,barentu,15.1139,37.5928,27.01,31,88,1.07,ER,1683173198
546,springfield,37.2153,-93.2982,12.21,64,0,1.54,US,1683172900
547,klyuchi,52.2667,79.1667,11.62,34,34,3.75,RU,1683173199
548,loreto,22.2667,-101.9667,20.93,23,100,3.25,MX,1683173199
549,boralday,43.3578,76.8594,6.92,29,0,2.0,KZ,1683173199
550,gushikawa,26.3544,127.8686,26.57,78,100,5.66,JP,1683173200
551,tezu,27.9167,96.1667,23.48,75,100,0.76,IN,1683173200
